[{"id": "RdDcS9FoedxmwTHlNjp9SA", "alias": "eazylife-restaurant-and-lounge-the-bronx", "name": "EazyLife Restaurant & Lounge", "image_url": "https://s3-media1.fl.yelpcdn.com/bphoto/amcw5oTh9BzSa3CuUbQArQ/o.jpg", "is_closed": false, "url": "https://www.yelp.com/biz/eazylife-restaurant-and-lounge-the-bronx?adjust_creative=JpdKfokHU6gE_qqoxecpzg&utm_campaign=yelp_api_v3&utm_medium=api_v3_business_search&utm_source=JpdKfokHU6gE_qqoxecpzg", "review_count": 8, "categories": [{"alias": "african", "title": "African"}], "rating": 3.5, "coordinates": {"latitude": 40.87886, "longitude": -73.84307}, "transactions": ["pickup", "delivery"], "location": {"address1": "1300 E 222nd St", "address2": null, "address3": "", "city": "The Bronx", "zip_code": "10469", "country": "US", "state": "NY", "display_address": ["1300 E 222nd St", "The Bronx, NY 10469"]}, "phone": "+13476037644", "display_phone": "(347) 603-7644", "distance": 3793.45478469638}, {"id": "sszkDE7Ql6BnQLOWqKLeFg", "alias": "220-african-restaurant-bronx", "name": "220 African Restaurant", "image_url": "https://s3-media2.fl.yelpcdn.com/bphoto/x6LZX2TqsXcwQpZUJTmvHw/o.jpg", "is_closed": false, "url": "https://www.yelp.com/biz/220-african-restaurant-bronx?adjust_creative=JpdKfokHU6gE_qqoxecpzg&utm_campaign=yelp_api_v3&utm_medium=api_v3_business_search&utm_source=JpdKfokHU6gE_qqoxecpzg", "review_count": 5, "categories": [{"alias": "senegalese", "title": "Senegalese"}, {"alias": "halal", "title": "Halal"}], "rating": 4.5, "coordinates": {"latitude": 40.8910767, "longitude": -73.8582669}, "transactions": ["pickup", "delivery"], "location": {"address1": "4120 A White Plains Rd", "address2": null, "address3": "", "city": "Bronx", "zip_code": "10466", "country": "US", "state": "NY", "display_address": ["4120 A White Plains Rd", "Bronx, NY 10466"]}, "phone": "+19179663727", "display_phone": "(917) 966-3727", "distance": 4460.440543745899}, {"id": "ufWQmn5PjrM0M46L6kpX8g", "alias": "papaye-bronx", "name": "Papaye", "image_url": "https://s3-media2.fl.yelpcdn.com/bphoto/KylMzh7qnA02tAqRHK-b4Q/o.jpg", "is_closed": false, "url": "https://www.yelp.com/biz/papaye-bronx?adjust_creative=JpdKfokHU6gE_qqoxecpzg&utm_campaign=yelp_api_v3&utm_medium=api_v3_business_search&utm_source=JpdKfokHU6gE_qqoxecpzg", "review_count": 34, "categories": [{"alias": "african", "title": "African"}], "rating": 3.5, "coordinates": {"latitude": 40.8574849, "longitude": -73.899272}, "transactions": ["delivery"], "price": "$$", "location": {"address1": "2300 Grand Concourse", "address2": "", "address3": "", "city": "Bronx", "zip_code": "10458", "country": "US", "state": "NY", "display_address": ["2300 Grand Concourse", "Bronx, NY 10458"]}, "phone": "+17186760771", "display_phone": "(718) 676-0771", "distance": 2417.794541862253}, {"id": "tjDfWDiMASjgkpRj30-Z4g", "alias": "mama-g-african-kitchen-bronx", "name": "Mama G African Kitchen", "image_url": "https://s3-media2.fl.yelpcdn.com/bphoto/ZSsMpVvQ-Xr6uWbEx-l_jQ/o.jpg", "is_closed": false, "url": "https://www.yelp.com/biz/mama-g-african-kitchen-bronx?adjust_creative=JpdKfokHU6gE_qqoxecpzg&utm_campaign=yelp_api_v3&utm_medium=api_v3_business_search&utm_source=JpdKfokHU6gE_qqoxecpzg", "review_count": 9, "categories": [{"alias": "african", "title": "African"}], "rating": 3.0, "coordinates": {"latitude": 40.8709904756924, "longitude": -73.8476734676737}, "transactions": ["delivery"], "location": {"address1": "1322A E Gun Hill Rd", "address2": "", "address3": null, "city": "Bronx", "zip_code": "10467", "country": "US", "state": "NY", "display_address": ["1322A E Gun Hill Rd", "Bronx, NY 10467"]}, "phone": "+17187087811", "display_phone": "(718) 708-7811", "distance": 2887.45321269279}, {"id": "cHugL8xNjw0GFaEvyai6NA", "alias": "adom-african-cuisine-bronx", "name": "Adom African Cuisine", "image_url": "https://s3-media4.fl.yelpcdn.com/bphoto/TpWTLXe-1ewaNgUCw8IIFQ/o.jpg", "is_closed": false, "url": "https://www.yelp.com/biz/adom-african-cuisine-bronx?adjust_creative=JpdKfokHU6gE_qqoxecpzg&utm_campaign=yelp_api_v3&utm_medium=api_v3_business_search&utm_source=JpdKfokHU6gE_qqoxecpzg", "review_count": 1, "categories": [{"alias": "african", "title": "African"}], "rating": 5.0, "coordinates": {"latitude": 40.8463837, "longitude": -73.8926897}, "transactions": ["pickup", "delivery"], "location": {"address1": "613 E Tremont Ave", "address2": null, "address3": "", "city": "Bronx", "zip_code": "10457", "country": "US", "state": "NY", "display_address": ["613 E Tremont Ave", "Bronx, NY 10457"]}, "phone": "+12159398741", "display_phone": "(215) 939-8741", "distance": 1905.5323816335576}, {"id": "fNuw9yn630M9LEIlMz-AmQ", "alias": "nneji-astoria", "name": "Nneji", "image_url": "https://s3-media2.fl.yelpcdn.com/bphoto/PxxawW3r15P3XuWlkA9I9Q/o.jpg", "is_closed": false, "url": "https://www.yelp.com/biz/nneji-astoria?adjust_creative=JpdKfokHU6gE_qqoxecpzg&utm_campaign=yelp_api_v3&utm_medium=api_v3_business_search&utm_source=JpdKfokHU6gE_qqoxecpzg", "review_count": 45, "categories": [{"alias": "african", "title": "African"}], "rating": 5.0, "coordinates": {"latitude": 40.7589449424008, "longitude": -73.9259921014309}, "transactions": ["pickup", "delivery"], "location": {"address1": "32-20 34th Ave", "address2": "", "address3": null, "city": "Astoria", "zip_code": "11106", "country": "US", "state": "NY", "display_address": ["32-20 34th Ave", "Astoria, NY 11106"]}, "phone": "+19178327338", "display_phone": "(917) 832-7338", "distance": 11343.322750196094}, {"id": "lRiPZuKtkxNILZixaD6WMA", "alias": "bravo-african-restaurant-east-bronx", "name": "Bravo African Restaurant", "image_url": "https://s3-media2.fl.yelpcdn.com/bphoto/6TzYezt9QdQHG2aLzNA6yA/o.jpg", "is_closed": false, "url": "https://www.yelp.com/biz/bravo-african-restaurant-east-bronx?adjust_creative=JpdKfokHU6gE_qqoxecpzg&utm_campaign=yelp_api_v3&utm_medium=api_v3_business_search&utm_source=JpdKfokHU6gE_qqoxecpzg", "review_count": 12, "categories": [{"alias": "senegalese", "title": "Senegalese"}], "rating": 4.0, "coordinates": {"latitude": 40.828537, "longitude": -73.8814621}, "transactions": ["pickup", "delivery"], "price": "$$", "location": {"address1": "1473 Westchester Ave", "address2": "", "address3": "", "city": "East Bronx", "zip_code": "10472", "country": "US", "state": "NY", "display_address": ["1473 Westchester Ave", "East Bronx, NY 10472"]}, "phone": "+19292631432", "display_phone": "(929) 263-1432", "distance": 2758.4783215047964}, {"id": "RMwhrKqmLph3zlY96FUHfA", "alias": "fouta-african-american-restaurant-bronx", "name": "Fouta African American Restaurant", "image_url": "https://s3-media2.fl.yelpcdn.com/bphoto/eJUbUWJhECZE_M2_vBrcZA/o.jpg", "is_closed": false, "url": "https://www.yelp.com/biz/fouta-african-american-restaurant-bronx?adjust_creative=JpdKfokHU6gE_qqoxecpzg&utm_campaign=yelp_api_v3&utm_medium=api_v3_business_search&utm_source=JpdKfokHU6gE_qqoxecpzg", "review_count": 29, "categories": [{"alias": "senegalese", "title": "Senegalese"}, {"alias": "halal", "title": "Halal"}], "rating": 3.5, "coordinates": {"latitude": 40.83126, "longitude": -73.86792}, "transactions": ["delivery"], "price": "$$", "location": {"address1": "1762 Westchester Ave", "address2": null, "address3": null, "city": "Bronx", "zip_code": "10472", "country": "US", "state": "NY", "display_address": ["1762 Westchester Ave", "Bronx, NY 10472"]}, "phone": "+17187921700", "display_phone": "(718) 792-1700", "distance": 2358.9214213399887}, {"id": "QuWIq9ZvULkLQFpZh03eLA", "alias": "bognan-international-west-african-restaurant-bronx", "name": "Bognan International West African Restaurant", "image_url": "https://s3-media4.fl.yelpcdn.com/bphoto/J49KI-AhvSUtTNyMByR-2g/o.jpg", "is_closed": false, "url": "https://www.yelp.com/biz/bognan-international-west-african-restaurant-bronx?adjust_creative=JpdKfokHU6gE_qqoxecpzg&utm_campaign=yelp_api_v3&utm_medium=api_v3_business_search&utm_source=JpdKfokHU6gE_qqoxecpzg", "review_count": 24, "categories": [{"alias": "african", "title": "African"}], "rating": 4.0, "coordinates": {"latitude": 40.8318596, "longitude": -73.9026031}, "transactions": ["delivery"], "price": "$", "location": {"address1": "590 E 169th St", "address2": "", "address3": "", "city": "Bronx", "zip_code": "10456", "country": "US", "state": "NY", "display_address": ["590 E 169th St", "Bronx, NY 10456"]}, "phone": "+13472715457", "display_phone": "(347) 271-5457", "distance": 3472.098555749647}, {"id": "EI8xqjodtD_5FOU5bQkAgw", "alias": "b-b-african-and-american-restaurant-bronx", "name": "B.B. African & American Restaurant", "image_url": "https://s3-media3.fl.yelpcdn.com/bphoto/ARsK9fjA63JMUwurY6OtNg/o.jpg", "is_closed": false, "url": "https://www.yelp.com/biz/b-b-african-and-american-restaurant-bronx?adjust_creative=JpdKfokHU6gE_qqoxecpzg&utm_campaign=yelp_api_v3&utm_medium=api_v3_business_search&utm_source=JpdKfokHU6gE_qqoxecpzg", "review_count": 5, "categories": [{"alias": "african", "title": "African"}], "rating": 4.0, "coordinates": {"latitude": 40.843578, "longitude": -73.903587}, "transactions": [], "price": "$", "location": {"address1": "1715 Webster Ave", "address2": "", "address3": "", "city": "Bronx", "zip_code": "10457", "country": "US", "state": "NY", "display_address": ["1715 Webster Ave", "Bronx, NY 10457"]}, "phone": "+17187317992", "display_phone": "(718) 731-7992", "distance": 2869.2760298088524}, {"id": "WI05doY7Zskp-hfdCODRxQ", "alias": "bate-nabaya-african-and-american-restaurant-bronx", "name": "Bate Nabaya African & American Restaurant", "image_url": "https://s3-media3.fl.yelpcdn.com/bphoto/e-E5ZLvVQiTYEf9qKMF8jg/o.jpg", "is_closed": false, "url": "https://www.yelp.com/biz/bate-nabaya-african-and-american-restaurant-bronx?adjust_creative=JpdKfokHU6gE_qqoxecpzg&utm_campaign=yelp_api_v3&utm_medium=api_v3_business_search&utm_source=JpdKfokHU6gE_qqoxecpzg", "review_count": 9, "categories": [{"alias": "african", "title": "African"}], "rating": 5.0, "coordinates": {"latitude": 40.823753, "longitude": -73.913856}, "transactions": ["delivery"], "location": {"address1": "860 Melrose Ave", "address2": "", "address3": "", "city": "Bronx", "zip_code": "10451", "country": "US", "state": "NY", "display_address": ["860 Melrose Ave", "Bronx, NY 10451"]}, "phone": "+17184012283", "display_phone": "(718) 401-2283", "distance": 4769.923702911483}, {"id": "CpVvDSf8FvDl3i4TY2INkA", "alias": "bravo-african-restaurant-the-bronx", "name": "Bravo African Restaurant", "image_url": "https://s3-media3.fl.yelpcdn.com/bphoto/MusRFOWOZ0nySspBHKuoNA/o.jpg", "is_closed": false, "url": "https://www.yelp.com/biz/bravo-african-restaurant-the-bronx?adjust_creative=JpdKfokHU6gE_qqoxecpzg&utm_campaign=yelp_api_v3&utm_medium=api_v3_business_search&utm_source=JpdKfokHU6gE_qqoxecpzg", "review_count": 1, "categories": [{"alias": "senegalese", "title": "Senegalese"}], "rating": 5.0, "coordinates": {"latitude": 40.8827270463777, "longitude": -73.8630735129118}, "transactions": ["pickup", "delivery"], "location": {"address1": "3744 White Plains Rd", "address2": "", "address3": null, "city": "The Bronx", "zip_code": "10467", "country": "US", "state": "NY", "display_address": ["3744 White Plains Rd", "The Bronx, NY 10467"]}, "phone": "+17187087535", "display_phone": "(718) 708-7535", "distance": 3464.699754550058}, {"id": "hcijjw-1OCZLt9iswz4vrQ", "alias": "accra-bronx", "name": "Accra", "image_url": "https://s3-media2.fl.yelpcdn.com/bphoto/g6MxpE1_WmnVBmaVNh4F6g/o.jpg", "is_closed": false, "url": "https://www.yelp.com/biz/accra-bronx?adjust_creative=JpdKfokHU6gE_qqoxecpzg&utm_campaign=yelp_api_v3&utm_medium=api_v3_business_search&utm_source=JpdKfokHU6gE_qqoxecpzg", "review_count": 37, "categories": [{"alias": "african", "title": "African"}], "rating": 3.5, "coordinates": {"latitude": 40.85402, "longitude": -73.90849}, "transactions": ["delivery"], "price": "$$", "location": {"address1": "2041 Davidson Ave", "address2": "", "address3": "", "city": "Bronx", "zip_code": "10453", "country": "US", "state": "NY", "display_address": ["2041 Davidson Ave", "Bronx, NY 10453"]}, "phone": "+17185848300", "display_phone": "(718) 584-8300", "distance": 3141.4739080521927}, {"id": "uwj3FOQ0ucGOxk3vBXaBCg", "alias": "teranga-harlem-new-york", "name": "Teranga Harlem", "image_url": "https://s3-media2.fl.yelpcdn.com/bphoto/hdirer4OT44hO9NmG8V4Zg/o.jpg", "is_closed": false, "url": "https://www.yelp.com/biz/teranga-harlem-new-york?adjust_creative=JpdKfokHU6gE_qqoxecpzg&utm_campaign=yelp_api_v3&utm_medium=api_v3_business_search&utm_source=JpdKfokHU6gE_qqoxecpzg", "review_count": 100, "categories": [{"alias": "african", "title": "African"}], "rating": 4.5, "coordinates": {"latitude": 40.796278, "longitude": -73.949119}, "transactions": ["pickup", "delivery"], "price": "$$", "location": {"address1": "1280 5th Ave", "address2": "", "address3": null, "city": "New York", "zip_code": "10029", "country": "US", "state": "NY", "display_address": ["1280 5th Ave", "New York, NY 10029"]}, "phone": "+16466631935", "display_phone": "(646) 663-1935", "distance": 9032.27997664465}, {"id": "38Us1YuiJGBI0ps-2pHpmw", "alias": "lagos-restaurant-and-lounge-new-york", "name": "Lagos Restaurant and Lounge", "image_url": "https://s3-media4.fl.yelpcdn.com/bphoto/GdITgSyua1ghZtrRurvhbQ/o.jpg", "is_closed": false, "url": "https://www.yelp.com/biz/lagos-restaurant-and-lounge-new-york?adjust_creative=JpdKfokHU6gE_qqoxecpzg&utm_campaign=yelp_api_v3&utm_medium=api_v3_business_search&utm_source=JpdKfokHU6gE_qqoxecpzg", "review_count": 47, "categories": [{"alias": "african", "title": "African"}, {"alias": "comfortfood", "title": "Comfort Food"}, {"alias": "lounges", "title": "Lounges"}], "rating": 3.5, "coordinates": {"latitude": 40.753869, "longitude": -73.968609}, "transactions": ["pickup", "delivery"], "location": {"address1": "306 E 49th St", "address2": null, "address3": "", "city": "New York", "zip_code": "10017", "country": "US", "state": "NY", "display_address": ["306 E 49th St", "New York, NY 10017"]}, "phone": "+12122810500", "display_phone": "(212) 281-0500", "distance": 13659.586260565273}, {"id": "4wyPdXX96e0akxvCp268iw", "alias": "accra-restaurant-new-york", "name": "Accra Restaurant", "image_url": "https://s3-media4.fl.yelpcdn.com/bphoto/ffrwe76XkIl-lehuQ-Bvcw/o.jpg", "is_closed": false, "url": "https://www.yelp.com/biz/accra-restaurant-new-york?adjust_creative=JpdKfokHU6gE_qqoxecpzg&utm_campaign=yelp_api_v3&utm_medium=api_v3_business_search&utm_source=JpdKfokHU6gE_qqoxecpzg", "review_count": 137, "categories": [{"alias": "african", "title": "African"}, {"alias": "soulfood", "title": "Soul Food"}, {"alias": "soup", "title": "Soup"}], "rating": 4.0, "coordinates": {"latitude": 40.8079504, "longitude": -73.9490877}, "transactions": ["pickup", "delivery"], "price": "$$", "location": {"address1": "2065 Adam Clayton Powell Jr Blvd", "address2": "", "address3": "", "city": "New York", "zip_code": "10027", "country": "US", "state": "NY", "display_address": ["2065 Adam Clayton Powell Jr Blvd", "New York, NY 10027"]}, "phone": "+12129327739", "display_phone": "(212) 932-7739", "distance": 8182.927198575543}, {"id": "vJ2T89E5ccVrngMfrsBGqw", "alias": "obaapa-african-restaurant-bronx", "name": "ObaaPa African Restaurant", "image_url": "https://s3-media3.fl.yelpcdn.com/bphoto/3fggaXNnpwMZNksvFfwmSg/o.jpg", "is_closed": false, "url": "https://www.yelp.com/biz/obaapa-african-restaurant-bronx?adjust_creative=JpdKfokHU6gE_qqoxecpzg&utm_campaign=yelp_api_v3&utm_medium=api_v3_business_search&utm_source=JpdKfokHU6gE_qqoxecpzg", "review_count": 7, "categories": [{"alias": "african", "title": "African"}], "rating": 2.5, "coordinates": {"latitude": 40.875305, "longitude": -73.887083}, "transactions": ["pickup", "delivery"], "location": {"address1": "3128 Villa Ave", "address2": "", "address3": "", "city": "Bronx", "zip_code": "10468", "country": "US", "state": "NY", "display_address": ["3128 Villa Ave", "Bronx, NY 10468"]}, "phone": "+13472704606", "display_phone": "(347) 270-4606", "distance": 2901.2788766346066}, {"id": "5W55UFYVTAdPvvo5xH0DbA", "alias": "voil\u00e0-afrique-new-york", "name": "Voil\u00e0 Afrique", "image_url": "https://s3-media3.fl.yelpcdn.com/bphoto/7tOy35IcNIV2zZauMN5IkA/o.jpg", "is_closed": false, "url": "https://www.yelp.com/biz/voil%C3%A0-afrique-new-york?adjust_creative=JpdKfokHU6gE_qqoxecpzg&utm_campaign=yelp_api_v3&utm_medium=api_v3_business_search&utm_source=JpdKfokHU6gE_qqoxecpzg", "review_count": 50, "categories": [{"alias": "african", "title": "African"}, {"alias": "latin", "title": "Latin American"}, {"alias": "caribbean", "title": "Caribbean"}], "rating": 4.5, "coordinates": {"latitude": 40.751572, "longitude": -73.970661}, "transactions": ["pickup", "delivery"], "location": {"address1": "844 2nd Ave", "address2": null, "address3": "", "city": "New York", "zip_code": "10017", "country": "US", "state": "NY", "display_address": ["844 2nd Ave", "New York, NY 10017"]}, "phone": "+19173273510", "display_phone": "(917) 327-3510", "distance": 13966.400033230317}, {"id": "GjAHO7PA-3Sxg1lkGza4sQ", "alias": "b-and-b-restaurant-corporation-new-york", "name": "B&B Restaurant Corporation", "image_url": "https://s3-media3.fl.yelpcdn.com/bphoto/1K16MSCu2unC9HVUqnhDBA/o.jpg", "is_closed": false, "url": "https://www.yelp.com/biz/b-and-b-restaurant-corporation-new-york?adjust_creative=JpdKfokHU6gE_qqoxecpzg&utm_campaign=yelp_api_v3&utm_medium=api_v3_business_search&utm_source=JpdKfokHU6gE_qqoxecpzg", "review_count": 159, "categories": [{"alias": "african", "title": "African"}, {"alias": "caribbean", "title": "Caribbean"}], "rating": 4.5, "coordinates": {"latitude": 40.7459112, "longitude": -73.9936086}, "transactions": ["pickup", "delivery"], "price": "$", "location": {"address1": "165 West 26th St", "address2": "", "address3": "", "city": "New York", "zip_code": "10001", "country": "US", "state": "NY", "display_address": ["165 West 26th St", "New York, NY 10001"]}, "phone": "+16464298174", "display_phone": "(646) 429-8174", "distance": 15670.179114723607}, {"id": "lmXZmABh3XeFMyTaxMOr7Q", "alias": "the-point-bronx", "name": "The Point", "image_url": "https://s3-media2.fl.yelpcdn.com/bphoto/Oiqlf8SLDrg689zbBySReA/o.jpg", "is_closed": false, "url": "https://www.yelp.com/biz/the-point-bronx?adjust_creative=JpdKfokHU6gE_qqoxecpzg&utm_campaign=yelp_api_v3&utm_medium=api_v3_business_search&utm_source=JpdKfokHU6gE_qqoxecpzg", "review_count": 5, "categories": [{"alias": "african", "title": "African"}, {"alias": "caribbean", "title": "Caribbean"}], "rating": 2.5, "coordinates": {"latitude": 40.85103, "longitude": -73.89915}, "transactions": ["delivery"], "location": {"address1": "2037 Webster Ave", "address2": null, "address3": null, "city": "Bronx", "zip_code": "10457", "country": "US", "state": "NY", "display_address": ["2037 Webster Ave", "Bronx, NY 10457"]}, "phone": "+13472701985", "display_phone": "(347) 270-1985", "distance": 2345.2034654338754}]