{"businesses": [{"id": "5W55UFYVTAdPvvo5xH0DbA", "alias": "voil\u00e0-afrique-new-york", "name": "Voil\u00e0 Afrique", "image_url": "https://s3-media3.fl.yelpcdn.com/bphoto/7tOy35IcNIV2zZauMN5IkA/o.jpg", "is_closed": false, "url": "https://www.yelp.com/biz/voil%C3%A0-afrique-new-york?adjust_creative=JpdKfokHU6gE_qqoxecpzg&utm_campaign=yelp_api_v3&utm_medium=api_v3_business_search&utm_source=JpdKfokHU6gE_qqoxecpzg", "review_count": 50, "categories": [{"alias": "african", "title": "African"}, {"alias": "latin", "title": "Latin American"}, {"alias": "caribbean", "title": "Caribbean"}], "rating": 4.5, "coordinates": {"latitude": 40.751572, "longitude": -73.970661}, "transactions": ["delivery", "pickup"], "location": {"address1": "844 2nd Ave", "address2": null, "address3": "", "city": "New York", "zip_code": "10017", "country": "US", "state": "NY", "display_address": ["844 2nd Ave", "New York, NY 10017"]}, "phone": "+19173273510", "display_phone": "(917) 327-3510", "distance": 5501.954271820847}, {"id": "fNuw9yn630M9LEIlMz-AmQ", "alias": "nneji-astoria", "name": "Nneji", "image_url": "https://s3-media2.fl.yelpcdn.com/bphoto/PxxawW3r15P3XuWlkA9I9Q/o.jpg", "is_closed": false, "url": "https://www.yelp.com/biz/nneji-astoria?adjust_creative=JpdKfokHU6gE_qqoxecpzg&utm_campaign=yelp_api_v3&utm_medium=api_v3_business_search&utm_source=JpdKfokHU6gE_qqoxecpzg", "review_count": 45, "categories": [{"alias": "african", "title": "African"}], "rating": 5.0, "coordinates": {"latitude": 40.7589449424008, "longitude": -73.9259921014309}, "transactions": ["delivery", "pickup"], "location": {"address1": "32-20 34th Ave", "address2": "", "address3": null, "city": "Astoria", "zip_code": "11106", "country": "US", "state": "NY", "display_address": ["32-20 34th Ave", "Astoria, NY 11106"]}, "phone": "+19178327338", "display_phone": "(917) 832-7338", "distance": 8277.092551174605}, {"id": "38Us1YuiJGBI0ps-2pHpmw", "alias": "lagos-restaurant-and-lounge-new-york", "name": "Lagos Restaurant and Lounge", "image_url": "https://s3-media4.fl.yelpcdn.com/bphoto/GdITgSyua1ghZtrRurvhbQ/o.jpg", "is_closed": false, "url": "https://www.yelp.com/biz/lagos-restaurant-and-lounge-new-york?adjust_creative=JpdKfokHU6gE_qqoxecpzg&utm_campaign=yelp_api_v3&utm_medium=api_v3_business_search&utm_source=JpdKfokHU6gE_qqoxecpzg", "review_count": 46, "categories": [{"alias": "african", "title": "African"}, {"alias": "comfortfood", "title": "Comfort Food"}, {"alias": "lounges", "title": "Lounges"}], "rating": 3.5, "coordinates": {"latitude": 40.753869, "longitude": -73.968609}, "transactions": ["delivery", "pickup"], "location": {"address1": "306 E 49th St", "address2": null, "address3": "", "city": "New York", "zip_code": "10017", "country": "US", "state": "NY", "display_address": ["306 E 49th St", "New York, NY 10017"]}, "phone": "+12122810500", "display_phone": "(212) 281-0500", "distance": 5801.9534378891785}, {"id": "uwj3FOQ0ucGOxk3vBXaBCg", "alias": "teranga-harlem-new-york", "name": "Teranga Harlem", "image_url": "https://s3-media2.fl.yelpcdn.com/bphoto/hdirer4OT44hO9NmG8V4Zg/o.jpg", "is_closed": false, "url": "https://www.yelp.com/biz/teranga-harlem-new-york?adjust_creative=JpdKfokHU6gE_qqoxecpzg&utm_campaign=yelp_api_v3&utm_medium=api_v3_business_search&utm_source=JpdKfokHU6gE_qqoxecpzg", "review_count": 100, "categories": [{"alias": "african", "title": "African"}], "rating": 4.5, "coordinates": {"latitude": 40.796278, "longitude": -73.949119}, "transactions": ["delivery", "pickup"], "price": "$$", "location": {"address1": "1280 5th Ave", "address2": "", "address3": null, "city": "New York", "zip_code": "10029", "country": "US", "state": "NY", "display_address": ["1280 5th Ave", "New York, NY 10029"]}, "phone": "+16466631935", "display_phone": "(646) 663-1935", "distance": 10784.018229692847}, {"id": "GjAHO7PA-3Sxg1lkGza4sQ", "alias": "b-and-b-restaurant-corporation-new-york", "name": "B&B Restaurant Corporation", "image_url": "https://s3-media3.fl.yelpcdn.com/bphoto/1K16MSCu2unC9HVUqnhDBA/o.jpg", "is_closed": false, "url": "https://www.yelp.com/biz/b-and-b-restaurant-corporation-new-york?adjust_creative=JpdKfokHU6gE_qqoxecpzg&utm_campaign=yelp_api_v3&utm_medium=api_v3_business_search&utm_source=JpdKfokHU6gE_qqoxecpzg", "review_count": 158, "categories": [{"alias": "african", "title": "African"}, {"alias": "caribbean", "title": "Caribbean"}], "rating": 4.5, "coordinates": {"latitude": 40.7459112, "longitude": -73.9936086}, "transactions": ["delivery", "pickup"], "price": "$", "location": {"address1": "165 West 26th St", "address2": "", "address3": "", "city": "New York", "zip_code": "10001", "country": "US", "state": "NY", "display_address": ["165 West 26th St", "New York, NY 10001"]}, "phone": "+16464298174", "display_phone": "(646) 429-8174", "distance": 4500.01604276325}, {"id": "Bo1eW6NCzOMuxIyu6CzutQ", "alias": "brooklyn-suya-brooklyn-2", "name": "Brooklyn Suya", "image_url": "https://s3-media4.fl.yelpcdn.com/bphoto/MK7bCtJjtzId-YREx-7w_A/o.jpg", "is_closed": false, "url": "https://www.yelp.com/biz/brooklyn-suya-brooklyn-2?adjust_creative=JpdKfokHU6gE_qqoxecpzg&utm_campaign=yelp_api_v3&utm_medium=api_v3_business_search&utm_source=JpdKfokHU6gE_qqoxecpzg", "review_count": 83, "categories": [{"alias": "african", "title": "African"}, {"alias": "hotdogs", "title": "Fast Food"}], "rating": 4.5, "coordinates": {"latitude": 40.67402, "longitude": -73.95661}, "transactions": ["delivery", "pickup"], "price": "$$", "location": {"address1": "717 Franklin Ave", "address2": null, "address3": "", "city": "Brooklyn", "zip_code": "11216", "country": "US", "state": "NY", "display_address": ["717 Franklin Ave", "Brooklyn, NY 11216"]}, "phone": "+17185130122", "display_phone": "(718) 513-0122", "distance": 4723.348349028102}, {"id": "l4fwf8VwAokv3MWT45Ab7g", "alias": "bunna-cafe-brooklyn", "name": "Bunna Cafe", "image_url": "https://s3-media4.fl.yelpcdn.com/bphoto/jGKIcCZ2lx23kKX2YRug7g/o.jpg", "is_closed": false, "url": "https://www.yelp.com/biz/bunna-cafe-brooklyn?adjust_creative=JpdKfokHU6gE_qqoxecpzg&utm_campaign=yelp_api_v3&utm_medium=api_v3_business_search&utm_source=JpdKfokHU6gE_qqoxecpzg", "review_count": 682, "categories": [{"alias": "coffee", "title": "Coffee & Tea"}, {"alias": "ethiopian", "title": "Ethiopian"}, {"alias": "african", "title": "African"}], "rating": 4.5, "coordinates": {"latitude": 40.705042, "longitude": -73.928078}, "transactions": ["delivery", "pickup"], "price": "$$", "location": {"address1": "1084 Flushing Ave", "address2": "", "address3": "", "city": "Brooklyn", "zip_code": "11237", "country": "US", "state": "NY", "display_address": ["1084 Flushing Ave", "Brooklyn, NY 11237"]}, "phone": "+13472952227", "display_phone": "(347) 295-2227", "distance": 5581.722287316518}, {"id": "ECk9dN7IVQvueTCoGO6gCA", "alias": "akwaaba-restaurant-brooklyn", "name": "AKWAABA RESTAURANT", "image_url": "https://s3-media4.fl.yelpcdn.com/bphoto/OW3kWgC6_CefterSId-Hvw/o.jpg", "is_closed": false, "url": "https://www.yelp.com/biz/akwaaba-restaurant-brooklyn?adjust_creative=JpdKfokHU6gE_qqoxecpzg&utm_campaign=yelp_api_v3&utm_medium=api_v3_business_search&utm_source=JpdKfokHU6gE_qqoxecpzg", "review_count": 23, "categories": [{"alias": "african", "title": "African"}], "rating": 4.0, "coordinates": {"latitude": 40.655952, "longitude": -73.953308}, "transactions": ["delivery"], "price": "$$", "location": {"address1": "604 Parkside Ave", "address2": "", "address3": "", "city": "Brooklyn", "zip_code": "11226", "country": "US", "state": "NY", "display_address": ["604 Parkside Ave", "Brooklyn, NY 11226"]}, "phone": "+13479852588", "display_phone": "(347) 985-2588", "distance": 6494.140103223733}, {"id": "FdB6KDTEmX8HvomPwySAHg", "alias": "joloff-restaurant-brooklyn", "name": "Joloff Restaurant", "image_url": "https://s3-media1.fl.yelpcdn.com/bphoto/n9NXWl4uPcRjbtJC1_psKg/o.jpg", "is_closed": false, "url": "https://www.yelp.com/biz/joloff-restaurant-brooklyn?adjust_creative=JpdKfokHU6gE_qqoxecpzg&utm_campaign=yelp_api_v3&utm_medium=api_v3_business_search&utm_source=JpdKfokHU6gE_qqoxecpzg", "review_count": 197, "categories": [{"alias": "senegalese", "title": "Senegalese"}, {"alias": "halal", "title": "Halal"}], "rating": 4.0, "coordinates": {"latitude": 40.6841, "longitude": -73.95422}, "transactions": ["delivery", "pickup"], "price": "$$", "location": {"address1": "1168 Bedford Ave", "address2": "", "address3": "", "city": "Brooklyn", "zip_code": "11216", "country": "US", "state": "NY", "display_address": ["1168 Bedford Ave", "Brooklyn, NY 11216"]}, "phone": "+17182300523", "display_phone": "(718) 230-0523", "distance": 4116.7930195221015}, {"id": "kXnTlyTQ9foQ6KOvn7SYbQ", "alias": "africana-restaurant-jamaica", "name": "Africana Restaurant", "image_url": "https://s3-media3.fl.yelpcdn.com/bphoto/nJErOl8sYEihsu46zmW6rw/o.jpg", "is_closed": false, "url": "https://www.yelp.com/biz/africana-restaurant-jamaica?adjust_creative=JpdKfokHU6gE_qqoxecpzg&utm_campaign=yelp_api_v3&utm_medium=api_v3_business_search&utm_source=JpdKfokHU6gE_qqoxecpzg", "review_count": 16, "categories": [{"alias": "african", "title": "African"}], "rating": 4.0, "coordinates": {"latitude": 40.6948099, "longitude": -73.80568}, "transactions": ["delivery", "pickup"], "price": "$$", "location": {"address1": "146-12 Liberty Ave", "address2": "", "address3": "", "city": "Jamaica", "zip_code": "11435", "country": "US", "state": "NY", "display_address": ["146-12 Liberty Ave", "Jamaica, NY 11435"]}, "phone": "+17186588501", "display_phone": "(718) 658-8501", "distance": 15940.825298541258}, {"id": "RC58AacE9s8VMMCz0boE4A", "alias": "berber-street-food-new-york-2", "name": "Berber Street Food", "image_url": "https://s3-media4.fl.yelpcdn.com/bphoto/3nEC_E4E3ICRRgSSaiJu4w/o.jpg", "is_closed": false, "url": "https://www.yelp.com/biz/berber-street-food-new-york-2?adjust_creative=JpdKfokHU6gE_qqoxecpzg&utm_campaign=yelp_api_v3&utm_medium=api_v3_business_search&utm_source=JpdKfokHU6gE_qqoxecpzg", "review_count": 64, "categories": [{"alias": "african", "title": "African"}], "rating": 4.0, "coordinates": {"latitude": 40.7302376195336, "longitude": -74.0033399462744}, "transactions": ["delivery", "pickup"], "location": {"address1": "35 Carmine St", "address2": "", "address3": null, "city": "New York", "zip_code": "10014", "country": "US", "state": "NY", "display_address": ["35 Carmine St", "New York, NY 10014"]}, "phone": "+16468700495", "display_phone": "(646) 870-0495", "distance": 2860.31516208027}, {"id": "r271Tv2uqJtIcghCFRa8BQ", "alias": "haile-bistro-new-york", "name": "Haile Bistro", "image_url": "https://s3-media1.fl.yelpcdn.com/bphoto/dkqvQWWa6moYhJvg0BwNeg/o.jpg", "is_closed": false, "url": "https://www.yelp.com/biz/haile-bistro-new-york?adjust_creative=JpdKfokHU6gE_qqoxecpzg&utm_campaign=yelp_api_v3&utm_medium=api_v3_business_search&utm_source=JpdKfokHU6gE_qqoxecpzg", "review_count": 234, "categories": [{"alias": "ethiopian", "title": "Ethiopian"}, {"alias": "bars", "title": "Bars"}], "rating": 4.5, "coordinates": {"latitude": 40.72783, "longitude": -73.97951}, "transactions": ["delivery", "pickup"], "price": "$$", "location": {"address1": "182 Ave B", "address2": null, "address3": "", "city": "New York", "zip_code": "10009", "country": "US", "state": "NY", "display_address": ["182 Ave B", "New York, NY 10009"]}, "phone": "+12126738949", "display_phone": "(212) 673-8949", "distance": 2782.2734044568556}, {"id": "ue6IQBYWDjjMiSScxA-2vw", "alias": "df-nigerian-food-truck-new-york", "name": "DF Nigerian Food Truck", "image_url": "https://s3-media1.fl.yelpcdn.com/bphoto/4en1l5LevZRsRIrx_zVvgg/o.jpg", "is_closed": false, "url": "https://www.yelp.com/biz/df-nigerian-food-truck-new-york?adjust_creative=JpdKfokHU6gE_qqoxecpzg&utm_campaign=yelp_api_v3&utm_medium=api_v3_business_search&utm_source=JpdKfokHU6gE_qqoxecpzg", "review_count": 47, "categories": [{"alias": "foodtrucks", "title": "Food Trucks"}, {"alias": "african", "title": "African"}, {"alias": "importedfood", "title": "Imported Food"}], "rating": 4.0, "coordinates": {"latitude": 40.75119, "longitude": -73.97086}, "transactions": ["delivery", "pickup"], "price": "$$", "location": {"address1": "828 2nd Ave", "address2": null, "address3": "", "city": "New York", "zip_code": "10017", "country": "US", "state": "NY", "display_address": ["828 2nd Ave", "New York, NY 10017"]}, "phone": "+17184516330", "display_phone": "(718) 451-6330", "distance": 5462.170127527097}, {"id": "r_QEUVdoo8dsKR9fK31w3w", "alias": "paradis-des-gouts-brooklyn", "name": "Paradis Des Gouts", "image_url": "https://s3-media4.fl.yelpcdn.com/bphoto/AD-VB6dzNNXuh4sUYCq4mw/o.jpg", "is_closed": false, "url": "https://www.yelp.com/biz/paradis-des-gouts-brooklyn?adjust_creative=JpdKfokHU6gE_qqoxecpzg&utm_campaign=yelp_api_v3&utm_medium=api_v3_business_search&utm_source=JpdKfokHU6gE_qqoxecpzg", "review_count": 53, "categories": [{"alias": "african", "title": "African"}, {"alias": "french", "title": "French"}], "rating": 4.5, "coordinates": {"latitude": 40.69333, "longitude": -73.92931}, "transactions": ["delivery", "pickup"], "price": "$$", "location": {"address1": "1136 Broadway", "address2": "", "address3": null, "city": "Brooklyn", "zip_code": "11221", "country": "US", "state": "NY", "display_address": ["1136 Broadway", "Brooklyn, NY 11221"]}, "phone": "+17184434584", "display_phone": "(718) 443-4584", "distance": 5641.105531375134}, {"id": "NPmqKZzKxwEXCZQZL7viHA", "alias": "ghenet-brooklyn-brooklyn", "name": "Ghenet Brooklyn", "image_url": "https://s3-media4.fl.yelpcdn.com/bphoto/xmsYzU65BV_Kuw35vedg4A/o.jpg", "is_closed": false, "url": "https://www.yelp.com/biz/ghenet-brooklyn-brooklyn?adjust_creative=JpdKfokHU6gE_qqoxecpzg&utm_campaign=yelp_api_v3&utm_medium=api_v3_business_search&utm_source=JpdKfokHU6gE_qqoxecpzg", "review_count": 505, "categories": [{"alias": "ethiopian", "title": "Ethiopian"}, {"alias": "african", "title": "African"}], "rating": 4.0, "coordinates": {"latitude": 40.6791399, "longitude": -73.98153}, "transactions": ["delivery", "pickup"], "price": "$$", "location": {"address1": "348 Douglass St", "address2": "", "address3": "", "city": "Brooklyn", "zip_code": "11217", "country": "US", "state": "NY", "display_address": ["348 Douglass St", "Brooklyn, NY 11217"]}, "phone": "+17182304475", "display_phone": "(718) 230-4475", "distance": 3118.8235955394402}, {"id": "cWzdIJhEDZIjSGDpYGWy3Q", "alias": "buka-new-york-brooklyn", "name": "Buka New York", "image_url": "https://s3-media3.fl.yelpcdn.com/bphoto/bPapyR6udPAHcqmQyGfzJw/o.jpg", "is_closed": false, "url": "https://www.yelp.com/biz/buka-new-york-brooklyn?adjust_creative=JpdKfokHU6gE_qqoxecpzg&utm_campaign=yelp_api_v3&utm_medium=api_v3_business_search&utm_source=JpdKfokHU6gE_qqoxecpzg", "review_count": 259, "categories": [{"alias": "bars", "title": "Bars"}, {"alias": "african", "title": "African"}, {"alias": "halal", "title": "Halal"}], "rating": 3.0, "coordinates": {"latitude": 40.68242, "longitude": -73.96301}, "transactions": ["delivery", "pickup"], "price": "$$", "location": {"address1": "946 Fulton St", "address2": null, "address3": "", "city": "Brooklyn", "zip_code": "11238", "country": "US", "state": "NY", "display_address": ["946 Fulton St", "Brooklyn, NY 11238"]}, "phone": "+13477630619", "display_phone": "(347) 763-0619", "distance": 3684.915959506232}, {"id": "YJ05uT-i4-pTUB_y1an6zw", "alias": "awash-brooklyn-brooklyn-5", "name": "Awash Brooklyn", "image_url": "https://s3-media1.fl.yelpcdn.com/bphoto/e_16iI66wCBiTs8_iiueIA/o.jpg", "is_closed": false, "url": "https://www.yelp.com/biz/awash-brooklyn-brooklyn-5?adjust_creative=JpdKfokHU6gE_qqoxecpzg&utm_campaign=yelp_api_v3&utm_medium=api_v3_business_search&utm_source=JpdKfokHU6gE_qqoxecpzg", "review_count": 198, "categories": [{"alias": "ethiopian", "title": "Ethiopian"}, {"alias": "african", "title": "African"}], "rating": 4.5, "coordinates": {"latitude": 40.6858, "longitude": -73.99441}, "transactions": ["delivery", "pickup"], "price": "$$", "location": {"address1": "242 Court St", "address2": "", "address3": "", "city": "Brooklyn", "zip_code": "11201", "country": "US", "state": "NY", "display_address": ["242 Court St", "Brooklyn, NY 11201"]}, "phone": "+17182432151", "display_phone": "(718) 243-2151", "distance": 2183.4893830755814}, {"id": "pwarWuPn7Aw_il-epzJEgg", "alias": "awash-ethiopian-restaurant-new-york-3", "name": "Awash Ethiopian Restaurant", "image_url": "https://s3-media2.fl.yelpcdn.com/bphoto/MTJUXz_vjrh7-qaKIXzyxw/o.jpg", "is_closed": false, "url": "https://www.yelp.com/biz/awash-ethiopian-restaurant-new-york-3?adjust_creative=JpdKfokHU6gE_qqoxecpzg&utm_campaign=yelp_api_v3&utm_medium=api_v3_business_search&utm_source=JpdKfokHU6gE_qqoxecpzg", "review_count": 341, "categories": [{"alias": "ethiopian", "title": "Ethiopian"}, {"alias": "african", "title": "African"}], "rating": 4.0, "coordinates": {"latitude": 40.72658, "longitude": -73.98682}, "transactions": ["delivery", "pickup"], "price": "$$", "location": {"address1": "338 E 6th St", "address2": "", "address3": "", "city": "New York", "zip_code": "10003", "country": "US", "state": "NY", "display_address": ["338 E 6th St", "New York, NY 10003"]}, "phone": "+12129829589", "display_phone": "(212) 982-9589", "distance": 2431.081735104972}, {"id": "vLt2PHLh9AtKh7fIIvwCWQ", "alias": "le-soleil-brillant-restaurant-new-york", "name": "Le Soleil Brillant Restaurant", "image_url": "https://s3-media4.fl.yelpcdn.com/bphoto/FcJdGkvsJFFRa_G9AOcOLA/o.jpg", "is_closed": false, "url": "https://www.yelp.com/biz/le-soleil-brillant-restaurant-new-york?adjust_creative=JpdKfokHU6gE_qqoxecpzg&utm_campaign=yelp_api_v3&utm_medium=api_v3_business_search&utm_source=JpdKfokHU6gE_qqoxecpzg", "review_count": 95, "categories": [{"alias": "haitian", "title": "Haitian"}], "rating": 4.0, "coordinates": {"latitude": 40.76857, "longitude": -73.988581}, "transactions": ["delivery", "pickup"], "price": "$$", "location": {"address1": "858 10th Ave", "address2": "", "address3": "", "city": "New York", "zip_code": "10019", "country": "US", "state": "NY", "display_address": ["858 10th Ave", "New York, NY 10019"]}, "phone": "+16466843138", "display_phone": "(646) 684-3138", "distance": 7035.679315174444}, {"id": "lXPQ5iNQjEPxX86D8YLV-w", "alias": "amarachi-brooklyn-2", "name": "Amarachi", "image_url": "https://s3-media2.fl.yelpcdn.com/bphoto/K5f3lcSo-xGSLO0NNlTdFQ/o.jpg", "is_closed": false, "url": "https://www.yelp.com/biz/amarachi-brooklyn-2?adjust_creative=JpdKfokHU6gE_qqoxecpzg&utm_campaign=yelp_api_v3&utm_medium=api_v3_business_search&utm_source=JpdKfokHU6gE_qqoxecpzg", "review_count": 429, "categories": [{"alias": "tradamerican", "title": "American (Traditional)"}, {"alias": "caribbean", "title": "Caribbean"}, {"alias": "african", "title": "African"}], "rating": 3.5, "coordinates": {"latitude": 40.69803, "longitude": -73.98482}, "transactions": ["delivery", "pickup"], "price": "$$", "location": {"address1": "189 Bridge St", "address2": "", "address3": "", "city": "Brooklyn", "zip_code": "11201", "country": "US", "state": "NY", "display_address": ["189 Bridge St", "Brooklyn, NY 11201"]}, "phone": "+17182221010", "display_phone": "(718) 222-1010", "distance": 1161.5143237627856}], "total": 228, "region": {"center": {"longitude": -73.99429321289062, "latitude": 40.70544486444615}}}